name,lng,lat
北京市,116.407387,39.904179
天津市,117.201509,39.085318
石家庄市,114.514976,38.042007
唐山市,118.180149,39.63068
秦皇岛市,119.52022,39.888243
邯郸市,114.53915,36.625849
邢台市,114.49742,37.060227
保定市,115.464523,38.874476
张家口市,114.885895,40.768931
承德市,117.962749,40.952942
沧州市,116.838715,38.304676
廊坊市,116.683546,39.538304
衡水市,115.668987,37.739367
太原市,112.549656,37.870451
大同市,113.366749,40.09711
阳泉市,113.580426,37.857094
长治市,113.117394,36.195142
晋城市,112.852022,35.491315
朔州市,112.432906,39.331734
晋中市,112.752633,37.688006
运城市,111.007051,35.02667
忻州市,112.734149,38.415958
临汾市,111.51931,36.088581
吕梁市,111.14454,37.518996
呼和浩特市,111.748814,40.842127
包头市,109.95315,40.621327
乌海市,106.79415,39.655048
赤峰市,118.887613,42.256876
通辽市,122.243309,43.653566
鄂尔多斯市,109.782473,39.608744
呼伦贝尔市,119.77845,49.166536
巴彦淖尔市,107.387767,40.742987
乌兰察布市,113.132227,40.994526
兴安盟,122.037796,46.082373
锡林郭勒盟,116.047387,43.933212
阿拉善盟,105.729135,38.851554
沈阳市,123.464675,41.677576
大连市,121.614786,38.913962
鞍山市,122.994183,41.108239
抚顺市,123.957053,41.881311
本溪市,123.684984,41.486834
丹东市,124.354419,40.000646
锦州市,121.126859,41.096114
营口市,122.219148,40.625027
阜新市,121.670052,42.022028
辽阳市,123.239669,41.267396
盘锦市,122.170729,40.71956
铁岭市,123.726008,42.223709
朝阳市,120.488801,41.601855
葫芦岛市,120.836783,40.710974
长春市,125.323643,43.816996
吉林市,126.549719,43.838132
四平市,124.350599,43.166764
辽源市,125.144676,42.887961
通化市,125.939721,41.728312
白山市,126.414274,41.944132
松原市,124.825321,45.14191
白城市,122.838102,45.620131
延边朝鲜族自治州,129.470605,42.909426
哈尔滨市,126.53505,45.802981
齐齐哈尔市,123.918193,47.354892
鸡西市,130.969385,45.295087
鹤岗市,130.297687,47.350659
双鸭山市,131.141563,46.676157
大庆市,125.104078,46.589498
伊春市,128.840863,47.728332
佳木斯市,130.318916,46.800002
七台河市,131.003015,45.771178
牡丹江市,129.632928,44.551486
黑河市,127.528226,50.244887
绥化市,126.968714,46.654147
大兴安岭地区,124.11786,50.41129
上海市,121.473667,31.230525
南京市,118.796624,32.059344
无锡市,120.311889,31.491064
徐州市,117.283752,34.204224
常州市,119.974092,31.811313
苏州市,120.585294,31.299758
南通市,120.894522,31.981269
连云港市,119.221487,34.596639
淮安市,119.113166,33.551495
盐城市,120.16263,33.348176
扬州市,119.412834,32.394404
镇江市,119.424441,32.188141
泰州市,119.922883,32.456692
宿迁市,118.275228,33.963186
杭州市,120.210792,30.246026
宁波市,121.62454,29.860258
温州市,120.699279,27.993849
嘉兴市,120.755623,30.746814
湖州市,120.086881,30.894178
绍兴市,120.582886,30.051549
金华市,119.647265,29.079195
衢州市,118.859307,28.970229
舟山市,122.207395,29.985578
台州市,121.42079,28.655716
丽水市,119.923249,28.467694
合肥市,117.227267,31.820567
芜湖市,118.433065,31.352614
蚌埠市,117.388566,32.91682
淮南市,117.018603,32.585384
马鞍山市,118.50685,31.668765
淮北市,116.798362,33.956264
铜陵市,117.811298,30.945214
安庆市,117.115349,30.531828
黄山市,118.337643,29.714886
滁州市,118.333439,32.255904
阜阳市,115.814252,32.891032
宿州市,116.96419,33.647726
六安市,116.519729,31.735892
亳州市,115.778588,33.846285
池州市,117.495663,30.674264
宣城市,118.759127,30.939278
福州市,119.296411,26.074286
厦门市,118.08891,24.479627
莆田市,119.007662,25.454202
三明市,117.638919,26.263455
泉州市,118.675724,24.874452
漳州市,117.647298,24.515297
南平市,118.081325,27.382829
龙岩市,117.017362,25.075884
宁德市,119.547729,26.666222
南昌市,115.857972,28.682976
景德镇市,117.184892,29.2744
萍乡市,113.887147,27.658721
九江市,115.95356,29.66116
新余市,114.916665,27.818553
鹰潭市,117.039532,28.272092
赣州市,114.933494,25.831139
吉安市,114.96681,27.091243
宜春市,114.416826,27.816245
抚州市,116.358054,27.948979
上饶市,117.943064,28.45513
济南市,117.120128,36.652069
青岛市,120.382665,36.066938
淄博市,118.054994,36.813787
枣庄市,117.323759,34.810858
东营市,118.674633,37.433992
烟台市,121.447755,37.464551
潍坊市,119.161721,36.707668
济宁市,116.587116,35.415117
泰安市,117.086963,36.201784
威海市,122.120519,37.513315
日照市,119.52685,35.416912
临沂市,118.356464,35.103771
德州市,116.359244,37.436492
聊城市,115.985238,36.455857
滨州市,117.970731,37.382687
菏泽市,115.479646,35.234309
郑州市,113.625351,34.746303
开封市,114.314278,34.798083
洛阳市,112.453895,34.619702
平顶山市,113.192595,33.766554
安阳市,114.39248,36.098779
鹤壁市,114.297305,35.748329
新乡市,113.92679,35.303589
焦作市,113.241902,35.215726
濮阳市,115.029246,35.762731
许昌市,113.852004,34.03732
漯河市,114.0166,33.58038
三门峡市,111.200482,34.773196
南阳市,112.528549,32.990218
商丘市,115.656358,34.415165
信阳市,114.091058,32.148624
周口市,114.701222,33.634652
驻马店市,114.021988,33.014038
济源市,112.602347,35.069057
武汉市,114.304569,30.593354
黄石市,115.038999,30.201082
十堰市,110.798921,32.629057
宜昌市,111.286962,30.69217
襄阳市,112.121743,32.010161
鄂州市,114.894909,30.391461
荆门市,112.199009,31.035445
孝感市,113.956962,30.918311
荆州市,112.24143,30.336282
黄冈市,114.872425,30.453722
咸宁市,114.322601,29.84135
随州市,113.382324,31.690275
恩施土家族苗族自治州,109.488076,30.272104
仙桃市,113.442973,30.328407
潜江市,112.900279,30.401954
天门市,113.166545,30.663706
神农架林区,110.675879,31.745103
长沙市,112.938882,28.228304
株洲市,113.132783,27.828862
湘潭市,112.945439,27.83136
衡阳市,112.572016,26.894216
邵阳市,111.467855,27.239528
岳阳市,113.128922,29.35648
常德市,111.69905,29.031446
张家界市,110.478887,29.117343
益阳市,112.355994,28.554853
郴州市,113.015517,25.770117
永州市,111.613482,26.419861
怀化市,110.001598,27.569813
娄底市,111.994468,27.699838
湘西土家族苗族自治州,109.737428,28.312592
广州市,113.264499,23.130061
韶关市,113.597324,24.810977
深圳市,114.057939,22.543527
珠海市,113.576892,22.271644
汕头市,116.681956,23.354152
佛山市,113.121586,23.021351
江门市,113.081548,22.578948
湛江市,110.357538,21.270108
茂名市,110.925533,21.662728
肇庆市,112.465245,23.047747
惠州市,114.415587,23.112368
梅州市,116.122046,24.288832
汕尾市,115.375557,22.787204
河源市,114.700215,23.744276
阳江市,111.98343,21.856853
清远市,113.056098,23.682064
东莞市,113.751884,23.021016
中山市,113.392517,22.517024
潮州市,116.621901,23.657662
揭阳市,116.372732,23.550968
云浮市,112.044524,22.915163
南宁市,108.366407,22.8177
柳州市,109.428071,24.326442
桂林市,110.179752,25.235615
梧州市,111.279022,23.476733
北海市,109.120248,21.481305
防城港市,108.35467,21.686732
钦州市,108.654355,21.980894
贵港市,109.598903,23.11182
玉林市,110.18097,22.654001
百色市,106.61869,23.90307
贺州市,111.567216,24.404182
河池市,108.085244,24.692906
来宾市,109.221243,23.750105
崇左市,107.364973,22.377139
海口市,110.198418,20.045805
三亚市,109.511709,18.252865
三沙市,112.338649,16.831004
儋州市,109.580812,19.520948
五指山市,109.516784,18.774827
琼海市,110.474524,19.259112
文昌市,110.797473,19.544234
万宁市,110.392605,18.793697
东方市,108.651829,19.095187
定安县,110.358001,19.681215
屯昌县,110.101667,19.351662
澄迈县,110.007497,19.738885
临高县,109.690508,19.912025
白沙黎族自治县,109.4429,19.221641
昌江黎族自治县,109.055783,19.298139
乐东黎族自治县,109.173384,18.750063
陵水黎族自治县,110.037553,18.506045
保亭黎族苗族自治县,109.700279,18.640339
琼中黎族苗族自治县,109.838423,19.03327
重庆市,106.550483,29.563707
成都市,104.066301,30.572961
自贡市,104.779307,29.33924
攀枝花市,101.71846,26.582417
泸州市,105.441866,28.87098
德阳市,104.397795,31.127449
绵阳市,104.679127,31.467673
广元市,105.844004,32.435774
遂宁市,105.592602,30.53268
内江市,105.057992,29.58021
乐山市,103.766085,29.552275
南充市,106.110565,30.837235
眉山市,103.848417,30.077113
宜宾市,104.642826,28.752354
广安市,106.632647,30.456354
达州市,107.46778,31.209278
雅安市,103.041538,30.009998
巴中市,106.747548,31.867853
资阳市,104.627265,30.129236
阿坝藏族羌族自治州,102.224504,31.899427
甘孜藏族自治州,101.96231,30.04952
凉山彝族自治州,102.267713,27.881396
贵阳市,106.628201,26.646694
六盘水市,104.830357,26.592538
遵义市,107.031922,27.721931
安顺市,105.9476,26.253103
毕节市,105.291544,27.283615
铜仁市,109.189528,27.731555
黔西南布依族苗族自治州,104.906419,25.087733
黔东南苗族侗族自治州,107.982838,26.583759
黔南布依族苗族自治州,107.522303,26.253136
昆明市,102.833669,24.88149
曲靖市,103.796288,25.490866
玉溪市,102.526673,24.346786
保山市,99.161489,25.112018
昭通市,103.717078,27.338185
丽江市,100.225936,26.855165
普洱市,100.966011,22.825229
临沧市,100.088837,23.884175
楚雄彝族自治州,101.528304,25.045678
红河哈尼族彝族自治州,103.374873,23.363129
文山壮族苗族自治州,104.21567,23.400983
西双版纳傣族自治州,100.797002,22.009037
大理白族自治州,100.267608,25.606548
德宏傣族景颇族自治州,98.585621,24.433146
怒江傈僳族自治州,98.8566,25.817555
迪庆藏族自治州,99.70211,27.819149
拉萨市,91.171924,29.653491
日喀则市,88.880423,29.266838
昌都市,97.170425,31.142879
林芝市,94.361436,29.64875
山南市,91.771426,29.237722
那曲市,92.05151,31.477905
阿里地区,80.105786,32.500987
西安市,108.939645,34.343207
铜川市,108.945116,34.897133
宝鸡市,107.237682,34.362862
咸阳市,108.708837,34.329896
渭南市,109.470962,34.520632
延安市,109.49468,36.650109
汉中市,107.02319,33.066373
榆林市,109.734104,38.28576
安康市,109.029017,32.685435
商洛市,109.918646,33.873358
兰州市,103.834228,36.060798
嘉峪关市,98.2882,39.77325
金昌市,102.187972,38.521468
白银市,104.138872,36.545123
天水市,105.724828,34.581514
武威市,102.637821,37.92898
张掖市,100.449858,38.924766
平凉市,106.664913,35.542417
酒泉市,98.49432,39.733416
庆阳市,107.643433,35.709459
定西市,104.592342,35.607947
陇南市,104.960296,33.370174
临夏回族自治州,103.210386,35.601792
甘南藏族自治州,102.911736,34.983266
西宁市,101.777795,36.616621
海东市,102.41064,36.473448
海北藏族自治州,100.900944,36.954612
黄南藏族自治州,102.015397,35.519317
海南藏族自治州,100.622647,36.296399
果洛藏族自治州,100.245161,34.472179
玉树藏族自治州,97.006292,33.006308
海西蒙古族藏族自治州,97.33197,37.348114
银川市,106.230977,38.487783
石嘴山市,106.382792,38.984632
吴忠市,106.198613,37.997755
固原市,106.24267,36.01628
中卫市,105.19677,37.500185
乌鲁木齐市,87.616824,43.825377
克拉玛依市,84.889239,45.577712
吐鲁番市,89.190374,42.950736
哈密市,93.515053,42.819346
昌吉回族自治州,87.308995,44.011044
博尔塔拉蒙古自治州,82.066363,44.906039
巴音郭楞蒙古自治州,86.145298,41.764115
阿克苏地区,80.265068,41.170712
克孜勒苏柯尔克孜自治州,76.167327,39.714734
喀什地区,75.989746,39.470492
和田地区,79.921646,37.114406
伊犁哈萨克自治州,81.323691,43.917106
塔城地区,82.980316,46.745364
阿勒泰地区,88.141253,47.844924
石河子市,86.080397,44.305368
阿拉尔市,81.280532,40.547205
图木舒克市,79.074965,39.867776
五家渠市,87.542852,44.166489
铁门关市,85.670291,41.862997
